[
	{
    "Latitude": -23.18111111,
    "Longitude": -50.64666667,
    "nome":"Prefeitura de Cornélio"
  }, 

  {
    "Latitude": -23.175004,
    "Longitude": -50.654315,
    "nome":"Noemi Lanches"
  },
  {
    "Latitude": -23.1862746,
    "Longitude": -50.6573834,
     "nome": "UTFPR"
  },

{
    "Latitude": -23.1850664,
    "Longitude": -50.6492053,
     "nome": "Mega Center Boliche"
},

{
    "Latitude": -23.1848319,
    "Longitude": -50.6486322,
     "nome": "A Toka do Pastel"
},

{
    "Latitude": -23.1858989,
    "Longitude": -50.6483825,
     "nome": "Chapão Lanches"
  },

{
    "Latitude": -23.1856829,
    "Longitude": -50.6497306,
     "nome": "Popedi"
  },

  {
    "Latitude": -23.1839063,
    "Longitude": -50.6493051,
     "nome": "Supermercado Cidade Cancão"
  },

  {
    "Latitude": -23.1831259,
    "Longitude": -50.653318,
     "nome": "Vittienzo's Burger Grill"
  },

  {
    "Latitude": -23.188399,
    "Longitude": -50.6500622,
     "nome": "Bueno Burguer Hamburgueria"
  },

  {
    "Latitude": -23.1829472,
    "Longitude": -50.6571381,
     "nome": "Padoka - Panificadora & Confeitaria"
  },

  {
    "Latitude": -23.1830086,
    "Longitude": -50.6488852,
     "nome": "Panificadora e Confeitaria Águia de Ouro"
  }
]